{"type":"FeatureCollection","features":[{"type":"Feature","properties":{"osm_type":"R","osm_id":149197,"osm_key":"place","osm_value":"city","type":"city","postcode":"14000","countrycode":"FR","name":"Caen","country":"France","state":"Normandie","county":"Calvados","extent":[-0.413777,49.2162655,-0.3307285,49.1530145]},"geometry":{"type":"Point","coordinates":[-0.3635615,49.1813403]}},{"type":"Feature","properties":{"osm_type":"R","osm_id":1428125,"osm_key":"place","osm_value":"country","type":"country","countrycode":"CA","name":"Canada","country":"Canada","extent":[-141.00275,83.3362128,-52.3237664,41.6765597]},"geometry":{"type":"Point","coordinates":[-107.991707,61.0666922]}},{"type":"Feature","properties":{"osm_type":"N","osm_id":671241592,"osm_key":"place","osm_value":"village","type":"district","countrycode":"TR","name":"Çan","country":"Turquie","city":"Karakoçan","state":"Elâzığ"},"geometry":{"type":"Point","coordinates":[40.212919,39.1549537]}},{"type":"Feature","properties":{"osm_type":"R","osm_id":349048,"osm_key":"place","osm_value":"state","type":"state","countrycode":"ES","name":"Îles Canaries","country":"Espagne","extent":[-18.1611809,29.4160647,-13.3320145,27.6377389]},"geometry":{"type":"Point","coordinates":[-16.621447121144122,28.2935785]}},{"type":"Feature","properties":{"osm_type":"N","osm_id":303021395,"osm_key":"place","osm_value":"town","type":"city","countrycode":"MX","name":"X-Can","country":"Mexique","state":"Yucatán","county":"Chemax"},"geometry":{"type":"Point","coordinates":[-87.6685363,20.8580619]}},{"type":"Feature","properties":{"osm_type":"R","osm_id":12694304,"osm_key":"place","osm_value":"village","type":"district","countrycode":"TR","name":"Çan","country":"Turquie","city":"Kınık","state":"İzmir","extent":[27.4054486,39.0506587,27.45601,38.9939497]},"geometry":{"type":"Point","coordinates":[27.434334,39.016041]}},{"type":"Feature","properties":{"osm_type":"R","osm_id":1816958,"osm_key":"place","osm_value":"town","type":"city","postcode":"17400","countrycode":"TR","name":"Çan","country":"Turquie","state":"Çanakkale","extent":[26.79521,40.1612286,27.2334838,39.8099049]},"geometry":{"type":"Point","coordinates":[27.0511631,40.0289459]}},{"type":"Feature","properties":{"osm_type":"N","osm_id":21674637,"osm_key":"place","osm_value":"city","type":"city","postcode":"2600","countrycode":"AU","name":"Canberra","country":"Australie","state":"Territoire de la capitale australienne","county":"District of Canberra Central"},"geometry":{"type":"Point","coordinates":[149.1012676,-35.2975906]}},{"type":"Feature","properties":{"osm_type":"N","osm_id":2531584364,"osm_key":"place","osm_value":"town","type":"city","postcode":"6806","countrycode":"PH","name":"Can-avid","country":"Philippines","state":"Samar oriental"},"geometry":{"type":"Point","coordinates":[125.4485155,11.9968852]}},{"type":"Feature","properties":{"osm_type":"R","osm_id":349013,"osm_key":"place","osm_value":"state","type":"state","countrycode":"ES","name":"Cantabrie","country":"Espagne","extent":[-4.8517354,43.5136234,-3.149652,42.7580499]},"geometry":{"type":"Point","coordinates":[-4.0878382,43.1595664]}},{"type":"Feature","properties":{"osm_type":"R","osm_id":91734,"osm_key":"place","osm_value":"town","type":"city","postcode":"06400;06150","countrycode":"FR","name":"Cannes","country":"France","state":"Provence-Alpes-Côte d'Azur","county":"Alpes-Maritimes","extent":[6.9447513,43.574726,7.074185,43.4994248]},"geometry":{"type":"Point","coordinates":[7.0134418,43.5515198]}},{"type":"Feature","properties":{"osm_type":"R","osm_id":152425,"osm_key":"place","osm_value":"village","type":"city","postcode":"14370","countrycode":"FR","name":"Canteloup","country":"France","state":"Normandie","county":"Calvados","extent":[-0.1331508,49.1447843,-0.1079935,49.1267101]},"geometry":{"type":"Point","coordinates":[-0.1310741,49.1325681]}},{"type":"Feature","properties":{"osm_type":"R","osm_id":2225032,"osm_key":"place","osm_value":"village","type":"city","postcode":"11200","countrycode":"FR","name":"Canet","country":"France","state":"Occitanie","county":"Aude","extent":[2.7963858,43.244506,2.861669,43.2050574]},"geometry":{"type":"Point","coordinates":[2.8474926,43.2292848]}},{"type":"Feature","properties":{"osm_type":"N","osm_id":369498284,"osm_key":"place","osm_value":"town","type":"city","countrycode":"VN","name":"Cần Giuộc","country":"Viêt Nam","state":"Province de Tây Ninh","county":"Xã Cần Giuộc"},"geometry":{"type":"Point","coordinates":[106.6711044,10.6080487]}},{"type":"Feature","properties":{"osm_type":"R","osm_id":1983813,"osm_key":"place","osm_value":"village","type":"city","postcode":"09700","countrycode":"FR","name":"Canté","country":"France","state":"Occitanie","extent":[1.4930734,43.2779027,1.5577572,43.224633]},"geometry":{"type":"Point","coordinates":[1.5326515,43.2548287]}},{"type":"Feature","properties":{"osm_type":"N","osm_id":369489968,"osm_key":"place","osm_value":"town","type":"city","countrycode":"VN","name":"Cần Đước","country":"Viêt Nam","state":"Province de Tây Ninh","county":"Xã Cần Đước"},"geometry":{"type":"Point","coordinates":[106.6039551,10.5033076]}},{"type":"Feature","properties":{"osm_type":"R","osm_id":163839,"osm_key":"place","osm_value":"village","type":"city","postcode":"34800","countrycode":"FR","name":"Canet","country":"France","state":"Occitanie","county":"Hérault","extent":[3.4633582,43.6175542,3.5006138,43.5806014]},"geometry":{"type":"Point","coordinates":[3.4885975,43.601305]}},{"type":"Feature","properties":{"osm_type":"R","osm_id":109932,"osm_key":"place","osm_value":"village","type":"city","postcode":"31310","countrycode":"FR","name":"Canens","country":"France","state":"Occitanie","county":"Haute-Garonne","extent":[1.3170852,43.2315375,1.3565984,43.2041693]},"geometry":{"type":"Point","coordinates":[1.3296474,43.2175638]}}]}